[
  {
    "height": 1409.421134997488,
    "latitude": 27.91476092807706,
    "longitude": 108.6407881968266,
    "name": "护国寺"
  },
  {
    "height": 1895.61129023331,
    "latitude": 27.9095035098935,
    "longitude": 108.6550923536009,
    "name": "棉絮岭"
  },
  {
    "height": 1707.216258064846,
    "latitude": 27.90905252632804,
    "longitude": 108.646772820986,
    "name": "中灵寺"
  },
  {
    "height": 1932.822074053631,
    "latitude": 27.91277526791347,
    "longitude": 108.6566136860648,
    "name": "万米睡佛"
  },
  {
    "height": 1971.125341686662,
    "latitude": 27.91179011055722,
    "longitude": 108.660247634469,
    "name": "薄刀岭"
  },
  {
    "height": 2005.543001333891,
    "latitude": 27.91400370909136,
    "longitude": 108.667136176253,
    "name": "生态科普长廊"
  },
  {
    "height": 2018.312782796599,
    "latitude": 27.91417534762893,
    "longitude": 108.6693898887334,
    "name": "黑巷子"
  },
  {
    "height": 2078.494658866536,
    "latitude": 27.91473748585787,
    "longitude": 108.670435354691,
    "name": "十月怀胎树"
  },
  {
    "height": 2095.999086008218,
    "latitude": 27.91514326871747,
    "longitude": 108.6719595226324,
    "name": "剪刀峡"
  },
  {
    "height": 2050.589130369894,
    "latitude": 27.91564154993051,
    "longitude": 108.6755835514767,
    "name": "生态展示长廊"
  },
  {
    "height": 2063.389655465258,
    "latitude": 27.91699913828437,
    "longitude": 108.6786433308941,
    "name": "万千台"
  },
  {
    "height": 2070.550374489723,
    "latitude": 27.9166818461646,
    "longitude": 108.6802301393603,
    "name": "叫花洞"
  },
  {
    "height": 2014.059986992594,
    "latitude": 27.91596164041473,
    "longitude": 108.6816939482162,
    "name": "流云亭"
  },
  {
    "height": 2015.351777692263,
    "latitude": 27.9163909635913,
    "longitude": 108.683876554679,
    "name": "老金顶（月镜山）"
  },
  {
    "height": 1845.627428909348,
    "latitude": 27.91340048841194,
    "longitude": 108.6828041119361,
    "name": "拜佛塔"
  },
  {
    "height": 1821.887425091099,
    "latitude": 27.91263868667149,
    "longitude": 108.684509544665,
    "name": "东线索道上站"
  },
  {
    "height": 2036.961533841118,
    "latitude": 27.91620701008489,
    "longitude": 108.6800946469121,
    "name": "金刀峡"
  },
  {
    "height": 1767.716584644922,
    "latitude": 27.91207196163252,
    "longitude": 108.6838063877002,
    "name": "僧塔"
  },
  {
    "height": 1737.943731835193,
    "latitude": 27.91118113397676,
    "longitude": 108.6835047764741,
    "name": "承恩寺"
  },
  {
    "height": 1829.925377177459,
    "latitude": 27.91111937344167,
    "longitude": 108.6853329610836,
    "name": "静心池"
  },
  {
    "height": 1888.913886559737,
    "latitude": 27.91098490150285,
    "longitude": 108.6863309859241,
    "name": "天街"
  },
  {
    "height": 1651.492238157933,
    "latitude": 27.90580461792431,
    "longitude": 108.6793671948208,
    "name": "九龙池"
  },
  {
    "height": 2084.63649780802,
    "latitude": 27.90530049897535,
    "longitude": 108.6920876381801,
    "name": "回香坪"
  },
  {
    "height": 1784.19717095973,
    "latitude": 27.90289749076997,
    "longitude": 108.6992524483334,
    "name": "万步云梯"
  },
  {
    "height": 1449.381870597917,
    "latitude": 27.90166132231351,
    "longitude": 108.7097155884873,
    "name": "鱼坳零步"
  },
  {
    "height": 1348.817705876677,
    "latitude": 27.9011899072281,
    "longitude": 108.7111769767164,
    "name": "鱼坳"
  },
  {
    "height": 1528.429184433526,
    "latitude": 27.89969522939922,
    "longitude": 108.7091047837338,
    "name": "鱼坳停车场"
  },
  {
    "height": 1475.820083711366,
    "latitude": 27.89810289321562,
    "longitude": 108.7087791257899,
    "name": "东线索道下站"
  },
  {
    "height": 1272.049962105432,
    "latitude": 27.88963073775037,
    "longitude": 108.7168429658067,
    "name": "铜矿厂"
  },
  {
    "height": 922.2581092877754,
    "latitude": 27.88387589072889,
    "longitude": 108.729601799537,
    "name": "因缘桥"
  },
  {
    "height": 1168.857111158957,
    "latitude": 27.87948707601234,
    "longitude": 108.7325663414902,
    "name": "小黑湾"
  },
  {
    "height": 1208.194653167591,
    "latitude": 27.8725490620101,
    "longitude": 108.7325154273108,
    "name": "观音瀑布"
  },
  {
    "height": 1117.15143489643,
    "latitude": 27.87625143846496,
    "longitude": 108.7356303260575,
    "name": "正道桥"
  },
  {
    "height": 888.899103061775,
    "latitude": 27.8732378751916,
    "longitude": 108.7415079736286,
    "name": "四谛桥"
  },
  {
    "height": 855.0623915251588,
    "latitude": 27.8707360114957,
    "longitude": 108.7451752837747,
    "name": "法印桥"
  },
  {
    "height": 698.8146648044536,
    "latitude": 27.86097751981876,
    "longitude": 108.7601846936232,
    "name": "黑湾河"
  },
  {
    "height": 684.7181215998075,
    "latitude": 27.85428183747936,
    "longitude": 108.7636853442921,
    "name": "老山门"
  },
  {
    "height": 730.2530774052445,
    "latitude": 27.85290135080769,
    "longitude": 108.7630303803362,
    "name": "碑林"
  },
  {
    "height": 650.9962849738004,
    "latitude": 27.85276015328376,
    "longitude": 108.7650365987039,
    "name": "竹林"
  },
  {
    "height": 590.9551143367471,
    "latitude": 27.84968927831761,
    "longitude": 108.7672885522866,
    "name": "护林站"
  },
  {
    "height": 624.896670124613,
    "latitude": 27.84758136527443,
    "longitude": 108.7681523526666,
    "name": "梵净山山门"
  },
  {
    "height": 624.8560638117453,
    "latitude": 27.84888364665794,
    "longitude": 108.7692696132817,
    "name": "黑湾河游客中心"
  },
  {
    "height": 542.2297619334198,
    "latitude": 27.8476429188673,
    "longitude": 108.7701407536864,
    "name": "微笑小屋"
  },
  {
    "height": 787.8923510528813,
    "latitude": 27.84404097727255,
    "longitude": 108.7623445104445,
    "name": "坝干"
  },
  {
    "height": 546.7411627252728,
    "latitude": 27.84605505334789,
    "longitude": 108.7693604378597,
    "name": "太平河"
  },
  {
    "height": 541.8563424867787,
    "latitude": 27.8458414464697,
    "longitude": 108.7746325694838,
    "name": "黑湾河入口服务区"
  },
  {
    "height": 2429.601801788642,
    "latitude": 27.92264268782757,
    "longitude": 108.6921511434576,
    "name": "烂茶顶"
  },
  {
    "height": 705.9572941939535,
    "latitude": 27.8351585848377,
    "longitude": 108.7523618151187,
    "name": "攀西野生动植物生态园"
  },
  {
    "height": 661.6099651461133,
    "latitude": 27.83377472140985,
    "longitude": 108.7549819259726,
    "name": "盘溪"
  },
  {
    "height": 1089.084722861341,
    "latitude": 27.92388513657967,
    "longitude": 108.6166864352583,
    "name": "大园子"
  },
  {
    "height": 1026.411104669615,
    "latitude": 27.9170346309727,
    "longitude": 108.6007630003996,
    "name": "团龙"
  },
  {
    "height": 867.6481946705021,
    "latitude": 27.93345446057348,
    "longitude": 108.6086376721439,
    "name": "杨家厂"
  },
  {
    "height": 771.249030303567,
    "latitude": 27.94402529970723,
    "longitude": 108.6073680825723,
    "name": "烂泥坳"
  },
  {
    "height": 787.6349397380881,
    "latitude": 27.94708386484393,
    "longitude": 108.6054905246116,
    "name": "张家坝"
  },
  {
    "height": 831.3962873297631,
    "latitude": 27.94557453943675,
    "longitude": 108.6110521944925,
    "name": "张家坝入口服务区"
  }
]